[+] INS initialized
-------------------------------
ACCEL_X: -0.16
ACCEL_Y: -0.12
ACCEL_Z: 9.71
MAGNET_X: 7.5
MAGNET_Y: -15.375
MAGNET_Z: -51.375
GYRO_X: -0.00111111
GYRO_Y: -0.00222222
GYRO_Z: 0
HEADING: 0
ROLL: 0
PITCH: 0
QUATERNION_W: 16512
QUATERNION_X: 0
QUATERNION_Y: 0
QUATERNION_Z: 0
LINEAR_ACCEL_X: -0.16
LINEAR_ACCEL_Y: -0.11
LINEAR_ACCEL_Z: -0.07
GRAVITY_X: -0.16
GRAVITY_Y: -0.12
GRAVITY_Z: 9.8
TEMPERATURE: 25
-------------------------------
$GPGGA,002043.000,4826.4074,N,06831.6239,W,1,09,1.04,24.7,M,-25.8,M,,*69

$GPGSA,A,3,24,32,04,28,11,01,17,03,06,,,,1.34,1.04,0.85*07

$GPRMC,002043.000,A,4826.4074,N,06831.6239,W,0.15,82.64,220515,,,A*49

$GPVTG,82.64,T,,M,0.15,N,0.28,K,A*0B

$GPGGA,002043.000,4826.4074,N,06831.6239,W,1,09,1.04,24.7,M,-25.8,M,,*69
$GPGSA,A,3,24,32,04,28,11,01,17,03,06,,,,1.34,1.04,0.85*07
,-25.8,M,,*69
$GPRMC,002043.000,A,4826.4074,N,06831.6239,W,0.15,82.64,220515,,,A*49
69
$GPVTG,82.64,T,,M,0.15,N,0.28,K,A*0B
.6239,W,0.15,82.64,220515,,,A*49
69
$GPGGA,002043.000,4826.4074,N,06831.6239,W,1,09,1.04,24.7,M,-25.8,M,,*69
$GPGSA,A,3,24,32,04,28,11,01,17,03,06,,,,1.34,1.04,0.85*07
,-25.8,M,,*69
$GPRMC,002043.000,A,4826.4074,N,06831.6239,W,0.15,82.64,220515,,,A*49
69
$GPVTG,82.64,T,,M,0.15,N,0.28,K,A*0B
.6239,W,0.15,82.64,220515,,,A*49
69
$GPGGA,002044.000,4826.4074,N,06831.6239,W,1,09,1.04,24.7,M,-25.8,M,,*6E

$GPGSA,A,3,24,32,04,28,11,01,17,03,06,,,,1.34,1.04,0.85*07

$GPRMC,002044.000,A,4826.4074,N,06831.6239,W,0.20,77.35,220515,,,A*46

$GPVTG,77.35,T,,M,0.20,N,0.36,K,A*0C

$GPGGA,002043.000,4826.4074,N,06831.6239,W,1,09,1.04,24.7,M,-25.8,M,,*69
$GPGSA,A,3,24,32,04,28,11,01,17,03,06,,,,1.34,1.04,0.85*07
,-25.8,M,,*69
$GPRMC,002043.000,A,4826.4074,N,06831.6239,W,0.15,82.64,220515,,,A*49
69
$GPVTG,82.64,T,,M,0.15,N,0.28,K,A*0B
.6239,W,0.15,82.64,220515,,,A*49
69
$GPGGA,002044.000,4826.4074,N,06831.6239,W,1,09,1.04,24.7,M,-25.8,M,,*6E
$GPGSA,A,3,24,32,04,28,11,01,17,03,06,,,,1.34,1.04,0.85*07
,-25.8,M,,*6E
$GPRMC,002044.000,A,4826.4074,N,06831.6239,W,0.20,77.35,220515,,,A*46
6E
$GPVTG,77.35,T,,M,0.20,N,0.36,K,A*0C
.6239,W,0.20,77.35,220515,,,A*46
6E
$GPGGA,002043.000,4826.4074,N,06831.6239,W,1,09,1.04,24.7,M,-25.8,M,,*69
$GPGSA,A,3,24,32,04,28,11,01,17,03,06,,,,1.34,1.04,0.85*07
,-25.8,M,,*69
$GPRMC,002043.000,A,4826.4074,N,06831.6239,W,0.15,82.64,220515,,,A*49
69
$GPVTG,82.64,T,,M,0.15,N,0.28,K,A*0B
.6239,W,0.15,82.64,220515,,,A*49
69
$GPGGA,002045.000,4826.4074,N,06831.6238,W,1,09,1.04,24.7,M,-25.8,M,,*6E

$GPGSA,A,3,24,32,04,28,11,01,17,03,06,,,,1.34,1.04,0.85*07

$GPRMC,002045.000,A,4826.4074,N,06831.6238,W,0.28,58.58,220515,,,A*48

$GPVTG,58.58,T,,M,0.28,N,0.51,K,A*03

$GPGGA,002044.000,4826.4074,N,06831.6239,W,1,09,1.04,24.7,M,-25.8,M,,*6E
$GPGSA,A,3,24,32,04,28,11,01,17,03,06,,,,1.34,1.04,0.85*07
,-25.8,M,,*6E
$GPRMC,002044.000,A,4826.4074,N,06831.6239,W,0.20,77.35,220515,,,A*46
6E
$GPVTG,77.35,T,,M,0.20,N,0.36,K,A*0C
.6239,W,0.20,77.35,220515,,,A*46
6E
$GPGGA,002043.000,4826.4074,N,06831.6239,W,1,09,1.04,24.7,M,-25.8,M,,*69
$GPGSA,A,3,24,32,04,28,11,01,17,03,06,,,,1.34,1.04,0.85*07
,-25.8,M,,*69
$GPRMC,002043.000,A,4826.4074,N,06831.6239,W,0.15,82.64,220515,,,A*49
69
$GPVTG,82.64,T,,M,0.15,N,0.28,K,A*0B
.6239,W,0.15,82.64,220515,,,A*49
69
$GPGGA,002045.000,4826.4074,N,06831.6238,W,1,09,1.04,24.7,M,-25.8,M,,*6E
$GPGSA,A,3,24,32,04,28,11,01,17,03,06,,,,1.34,1.04,0.85*07
,-25.8,M,,*6E
$GPRMC,002045.000,A,4826.4074,N,06831.6238,W,0.28,58.58,220515,,,A*48
6E
$GPVTG,58.58,T,,M,0.28,N,0.51,K,A*03
.6238,W,0.28,58.58,220515,,,A*48
6E
$GPGGA,002044.000,4826.4074,N,06831.6239,W,1,09,1.04,24.7,M,-25.8,M,,*6E
$GPGSA,A,3,24,32,04,28,11,01,17,03,06,,,,1.34,1.04,0.85*07
,-25.8,M,,*6E
$GPGGA,002046.000,4826.4075,N,06831.6237,W,1,09,1.04,24.7,M,-25.8,M,,*63

$GPGSA,A,3,24,32,04,28,11,01,17,03,06,,,,1.34,1.04,0.85*07

$GPGSV,3,1,11,17,76,319,30,28,52,169,29,03,45,094,30,06,36,232,18*79

$GPGSV,3,2,11,01,31,057,28,32,22,047,25,24,17,308,15,11,15,071,22*7B

$GPGSV,3,3,11,04,05,057,16,14,01,008,,40,,,*75

$GPRMC,002046.000,A,4826.4075,N,06831.6237,W,0.31,56.66,220515,,,A*4E

$GPVTG,56.66,T,,M,0.31,N,0.58,K,A*01

$GPRMC,002044.000,A,4826.4074,N,06831.6239,W,0.20,77.35,220515,,,A*46
$GPVTG,77.35,T,,M,0.20,N,0.36,K,A*0C
.6239,W,0.20,77.35,220515,,,A*46
$GPGGA,002043.000,4826.4074,N,06831.6239,W,1,09,1.04,24.7,M,-25.8,M,,*69
$GPGSA,A,3,24,32,04,28,11,01,17,03,06,,,,1.34,1.04,0.85*07
,-25.8,M,,*69
$GPRMC,002043.000,A,4826.4074,N,06831.6239,W,0.15,82.64,220515,,,A*49
69
$GPVTG,82.64,T,,M,0.15,N,0.28,K,A*0B
.6239,W,0.15,82.64,220515,,,A*49
69
$GPGGA,002045.000,4826.4074,N,06831.6238,W,1,09,1.04,24.7,M,-25.8,M,,*6E
iñ1%–`$GPGSA,A,3,24,32,04,28,11,01,17,03,06,,,,1.34,1.04,0.85*07
,-25.8,M,,*6E
iñ1%–`$GPRMC,002045.000,A,4826.4074,N,06831.6238,W,0.28,58.58,220515,,,A*48
6E
iñ1%–`$GPVTG,58.58,T,,M,0.28,N,0.51,K,A*03
.6238,W,0.28,58.58,220515,,,A*48
6E
iñ1%–`$GPGGA,002044.000,4826.4074,N,06831.6239,W,1,09,1.04,24.7,M,-25.8,M,,*6E
iñ1%–`$GPGSA,A,3,24,32,04,28,11,01,17,03,06,,,,1.34,1.04,0.85*07
,-25.8,M,,*6E
iñ1%–`$GPGGA,002047.000,4826.4075,N,06831.6236,W,1,09,1.04,24.7,M,-25.8,M,,*63

$GPGSA,A,3,24,32,04,28,11,01,17,03,06,,,,1.34,1.04,0.85*07

$GPRMC,002047.000,A,4826.4075,N,06831.6236,W,0.34,51.72,220515,,,A*49

$GPVTG,51.72,T,,M,0.34,N,0.63,K,A*0E

$GPGGA,002046.000,4826.4075,N,06831.6237,W,1,09,1.04,24.7,M,-25.8,M,,*63
$GPGSA,A,3,24,32,04,28,11,01,17,03,06,,,,1.34,1.04,0.85*07
,-25.8,M,,*63
$GPGSV,3,1,11,17,76,319,30,28,52,169,29,03,45,094,30,06,36,232,18*79
*63
$GPGSV,3,2,11,01,31,057,28,32,22,047,25,24,17,308,15,11,15,071,22*7B
*63
$GPGSV,3,3,11,04,05,057,16,14,01,008,,40,,,*75
08,15,11,15,071,22*7B
*63
$GPRMC,002046.000,A,4826.4075,N,06831.6237,W,0.31,56.66,220515,,,A*4E
63
$GPVTG,56.66,T,,M,0.31,N,0.58,K,A*01
.6237,W,0.31,56.66,220515,,,A*4E
63
$GPRMC,002044.000,A,4826.4074,N,06831.6239,W,0.20,77.35,220515,,,A*46
63
$GPVTG,77.35,T,,M,0.20,N,0.36,K,A*0C
.6239,W,0.20,77.35,220515,,,A*46
63
$GPGGA,002043.000,4826.4074,N,06831.6239,W,1,09,1.04,24.7,M,-25.8,M,,*69
$GPGSA,A,3,24,32,04,28,11,01,17,03,06,,,,1.34,1.04,0.85*07
,-25.8,M,,*69
$GPRMC,002043.000,A,4826.4074,N,06831.6239,W,0.15,82.64,220515,,,A*49
69
$GPVTG,82.64,T,,M,0.15,N,0.28,K,A*0B
.6239,W,0.15,82.64,220515,,,A*49
69
$GPGGA,002048.000,4826.4076,N,06831.6235,W,1,09,1.04,24.7,M,-25.8,M,,*6C

$GPGSA,A,3,24,32,04,28,11,01,17,03,06,,,,1.34,1.04,0.85*07

$GPRMC,002048.000,A,4826.4076,N,06831.6235,W,0.37,72.47,220515,,,A*42

$GPVTG,72.47,T,,M,0.37,N,0.69,K,A*00

$GPRMC,002045.000,A,4826.4074,N,06831.6238,W,0.28,58.58,220515,,,A*48
$GPVTG,58.58,T,,M,0.28,N,0.51,K,A*03
.6238,W,0.28,58.58,220515,,,A*48
$GPGGA,002047.000,4826.4075,N,06831.6236,W,1,09,1.04,24.7,M,-25.8,M,,*63
^Ciñ1%–`$GPGSA,A,3,24,32,04,28,11,01,17,03,06,,,,1.34,1.04,0.85*07
åô$GPGSA,A,3,24,32,04,28,11,01,17,03,06,,,,1.34,1.04,0.85*07
,-25.8,M,,*63
A0.85*07
åô$GPRMC,002047.000,A,4826.4075,N,06831.6236,W,0.34,51.72,220515,,,A*49
63
A0.85*07
åô$GPVTG,51.72,T,,M,0.34,N,0.63,K,A*0E
.6236,W,0.34,51.72,220515,,,A*49
63
A0.85*07
åô$GPGGA,002046.000,4826.4075,N,06831.6237,W,1,09,1.04,24.7,M,-25.8,M,,*63
A0.85*07
åô$GPGSA,A,3,24,32,04,28,11,01,17,03,06,,,,1.34,1.04,0.85*07
,-25.8,M,,*63
A0.85*07
åô$GPGSV,3,1,11,17,76,319,30,28,52,169,29,03,45,094,30,06,36,232,18*79
*63
A0.85*07
åô$GPGSV,3,2,11,01,31,057,28,32,22,047,25,24,17,308,15,11,15,071,22*7B
*63
A0.85*07
åô$GPGSV,3,3,11,04,05,057,16,14,01,008,,40,,,*75
08,15,11,15,071,22*7B
*63
A0.85*07
åô$GPGGA,002049.000,4826.4076,N,06831.6233,W,1,09,1.04,24.7,M,-25.8,M,,*6B

$GPGSA,A,3,24,32,04,28,11,01,17,03,06,,,,1.34,1.04,0.85*07

$GPRMC,002049.000,A,4826.4076,N,06831.6233,W,0.33,61.38,220515,,,A*4B

$GPVTG,61.38,T,,M,0.33,N,0.62,K,A*05

$GPRMC,002046.000,A,4826.4075,N,06831.6237,W,0.31,56.66,220515,,,A*4E
$GPVTG,56.66,T,,M,0.31,N,0.58,K,A*01
.6237,W,0.31,56.66,220515,,,A*4E
$GPRMC,002044.000,A,4826.4074,N,06831.6239,W,0.20,77.35,220515,,,A*46
$GPVTG,77.35,T,,M,0.20,N,0.36,K,A*0C
.6239,W,0.20,77.35,220515,,,A*46
$GPGGA,002043.000,4826.4074,N,06831.6239,W,1,09,1.04,24.7,M,-25.8,M,,*69
$GPGSA,A,3,24,32,04,28,11,01,17,03,06,,,,1.34,1.04,0.85*07
,-25.8,M,,*69
$GPRMC,002043.000,A,4826.4074,N,06831.6239,W,0.15,82.64,220515,,,A*49
69
$GPVTG,82.64,T,,M,0.15,N,0.28,K,A*0B
.6239,W,0.15,82.64,220515,,,A*49
69
$GPGGA,002048.000,4826.4076,N,06831.6235,W,1,09,1.04,24.7,M,-25.8,M,,*6C
$GPGSA,A,3,24,32,04,28,11,01,17,03,06,,,,1.34,1.04,0.85*07
,-25.8,M,,*6C
$GPRMC,002048.000,A,4826.4076,N,06831.6235,W,0.37,72.47,220515,,,A*42
6C
$GPVTG,72.47,T,,M,0.37,N,0.69,K,A*00
.6235,W,0.37,72.47,220515,,,A*42
6C
$GPRMC,002045.000,A,4826.4074,N,06831.6238,W,0.28,58.58,220515,,,A*48
6C
$GPGGA,002050.000,4826.4077,N,06831.6232,W,1,09,1.04,24.7,M,-25.8,M,,*63

$GPGSA,A,3,24,32,04,28,11,01,17,03,06,,,,1.34,1.04,0.85*07

$GPRMC,002050.000,A,4826.4077,N,06831.6232,W,0.33,63.15,220515,,,A*4E

$GPVTG,63.15,T,,M,0.33,N,0.62,K,A*08

$GPVTG,58.58,T,,M,0.28,N,0.51,K,A*03
ˇˇˇˇˇˇˇˇˇˇˇˇˇˇˇˇˇˇˇˇˇˇˇˇˇ
$GPGGA,002047.000,4826.4075,N,06831.6236,W,1,09,1.04,24.7,M,-25.8,M,,*63
$GPGSA,A,3,24,32,04,28,11,01,17,03,06,,,,1.34,1.04,0.85*07
,-25.8,M,,*63
$GPGSA,A,3,24,32,04,28,11,01,17,03,06,,,,1.34,1.04,0.85*07
,-25.8,M,,*63
$GPRMC,002047.000,A,4826.4075,N,06831.6236,W,0.34,51.72,220515,,,A*49
63
$GPVTG,51.72,T,,M,0.34,N,0.63,K,A*0E
,,,,1.›^ZA0.85*07
,220515,,,A*49
63
$GPGGA,002046.000,4826.4075,N,06831.6237,W,1,09,1.04,24.7,M,-25.8,M,,*63
$GPGSA,A,3,24,32,04,28,11,01,17,03,06,,,,1.34,1.04,0.85*07
,-25.8,M,,*63
$GPGSV,3,1,11,17,76,319,30,28,52,169,29,03,45,094,30,06,36,232,18*79
*63
$GPGGA,002051.000,4826.4077,N,06831.6231,W,1,09,1.04,24.7,M,-25.8,M,,*61

$GPGSA,A,3,24,32,04,28,11,01,17,03,06,,,,1.34,1.04,0.85*07

$GPGSV,3,1,11,17,76,319,30,28,52,169,28,03,45,094,27,06,36,232,17*71

$GPGSV,3,2,11,01,31,057,25,32,22,047,27,24,17,308,14,11,15,071,23*74

$GPGSV,3,3,11,04,05,057,17,14,01,008,,44,,,*70

$GPRMC,002051.000,A,4826.4077,N,06831.6231,W,0.20,111.73,220515,,,A*7A

$GPVTG,111.73,T,,M,0.20,N,0.37,K,A*3E

$GPGSV,3,2,11,01,31,057,28,32,22,047,25,24,17,308,15,11,15,071,22*7B
$GPGSV,3,3,11,04,05,057,16,14,01,008,,40,,,*75
^A¿q^ZA0.85*07
,22*7B
$GPGGA,002049.000,4826.4076,N,06831.6233,W,1,09,1.04,24.7,M,-25.8,M,,*6B
$GPGSA,A,3,24,32,04,28,11,01,17,03,06,,,,1.34,1.04,0.85*07
,-25.8,M,,*6B
$GPRMC,002049.000,A,4826.4076,N,06831.6233,W,0.33,61.38,220515,,,A*4B
6B
$GPVTG,61.38,T,,M,0.33,N,0.62,K,A*05
.6233,W,0.33,61.38,220515,,,A*4B
6B
$GPRMC,002046.000,A,4826.4075,N,06831.6237,W,0.31,56.66,220515,,,A*4E
6B
$GPVTG,56.66,T,,M,0.31,N,0.58,K,A*01
.6237,W,0.31,56.66,220515,,,A*4E
6B
$GPRMC,002044.000,A,4826.4074,N,06831.6239,W,0.20,77.35,220515,,,A*46
6B
$GPVTG,77.35,T,,M,0.20,N,0.36,K,A*0C
.6239,W,0.20,77.35,220515,,,A*46
6B
$GPGGA,002043.000,4826.4074,N,06831.6239,W,1,09,1.04,24.7,M,-25.8,M,,*69
$GPGGA,002052.000,4826.4077,N,06831.6230,W,1,09,1.04,24.7,M,-25.8,M,,*63

$GPGSA,A,3,24,32,04,28,11,01,17,03,06,,,,1.34,1.04,0.85*07

$GPRMC,002052.000,A,4826.4077,N,06831.6230,W,0.24,127.05,220515,,,A*78

$GPVTG,127.05,T,,M,0.24,N,0.44,K,A*3A

$GPGSA,A,3,24,32,04,28,11,01,17,03,06,,,,1.34,1.04,0.85*07
ˇˇˇ
$GPRMC,002043.000,A,4826.4074,N,06831.6239,W,0.15,82.64,220515,,,A*49
$GPVTG,82.64,T,,M,0.15,N,0.28,K,A*0B
.6239,W,0.15,82.64,220515,,,A*49
$GPGGA,002048.000,4826.4076,N,06831.6235,W,1,09,1.04,24.7,M,-25.8,M,,*6C
$GPGSA,A,3,24,32,04,28,11,01,17,03,06,,,,1.34,1.04,0.85*07
,-25.8,M,,*6C
$GPRMC,002048.000,A,4826.4076,N,06831.6235,W,0.37,72.47,220515,,,A*42
6C
$GPVTG,72.47,T,,M,0.37,N,0.69,K,A*00
ÛW 5$GPRMC,002045.000,A,4826.4074,N,06831.6238,W,0.28,58.58,220515,,,A*48
7ù?ûy≤$GPGGA,002050.000,4826.4077,N,06831.6232,W,1,09,1.04,24.7,M,-25.8,M,,*63
ûy≤$GPGSA,A,3,24,32,04,28,11,01,17,03,06,,,,1.34,1.04,0.85*07
,-25.8,M,,*63
ûy≤$GPRMC,002050.000,A,4826.4077,N,06831.6232,W,0.33,63.15,220515,,,A*4E
63
ûy≤$GPVTG,63.15,T,,M,0.33,N,0.62,K,A*08
.6232,W,0.33,63.15,220515,,,A*4E
63
ûy≤$GPVTG,58.58,T,,M,0.28,N,0.51,K,A*03
.6232,W,0.33,63.15,220515,,,A*4E
63
ûy≤$GPGGA,002053.000,4826.4076,N,06831.6229,W,1,09,1.04,24.7,M,-25.8,M,,*6B

$GPGSA,A,3,24,32,04,28,11,01,17,03,06,,,,1.34,1.04,0.85*07

$GPRMC,002053.000,A,4826.4076,N,06831.6229,W,0.16,159.72,220515,,,A*78

$GPVTG,159.72,T,,M,0.16,N,0.30,K,A*31

$GPGGA,002047.000,4826.4075,N,06831.6236,W,1,09,1.04,24.7,M,-25.8,M,,*63
$GPGSA,A,3,24,32,04,28,11,01,17,03,06,,,,1.34,1.04,0.85*07
,-25.8,M,,*63
$GPGSA,A,3,24,32,04,28,11,01,17,03,06,,,,1.34,1.04,0.85*07
,-25.8,M,,*63
$GPRMC,002047.000,A,4826.4075,N,06831.6236,W,0.34,51.72,220515,,,A*49
63
$GPVTG,51.72,T,,M,0.34,N,0.63,K,A*0E
.6236,W,0.34,51.72,220515,,,A*49
63
$GPGGA,002046.000,4826.4075,N,06831.6237,W,1,09,1.04,24.7,M,-25.8,M,,*63
$GPGSA,A,3,24,32,04,28,11,01,17,03,06,,,,1.34,1.04,0.85*07
,-25.8,M,,*63
$GPGSV,3,1,11,17,76,319,30,28,52,169,29,03,45,094,30,06,36,232,18*79
*63
$GPGGA,002051.000,4826.4077,N,06831.6231,W,1,09,1.04,24.7,M,-25.8,M,,*61
$GPGSA,A,3,24,32,04,28,11,01,17,03,06,,,,1.34,1.04,0.85*07
,-25.8,M,,*61
$GPGSV,3,1,11,17,76,319,30,28,52,169,28,03,45,094,27,06,36,232,17*71
*61
$GPGSV,3,2,11,01,31,057,25,32,22,047,27,24,17,308,14,11,15,071,23*74
*61
$GPGSV,3,3,11,04,05,057,17,14,01,008,,44,,,*70
08,14,11,15,071,23*74
*61
$GPRMC,002051.000,A,4826.4077,N,06831.6231,W,0.20,111.73,220515,,,A*7A
1
$GPGGA,002054.000,4826.4076,N,06831.6229,W,1,09,1.04,24.7,M,-25.8,M,,*6C

$GPGSA,A,3,24,32,04,28,11,01,17,03,06,,,,1.34,1.04,0.85*07

$GPRMC,002054.000,A,4826.4076,N,06831.6229,W,0.08,158.88,220515,,,A*74

$GPVTG,158.88,T,,M,0.08,N,0.14,K,A*3C

$GPVTG,111.73,T,,M,0.20,N,0.37,K,A*3E
ˇˇˇˇˇˇˇˇˇˇˇˇˇˇˇˇˇˇˇˇˇˇˇˇ
$GPGSV,3,2,11,01,31,057,28,32,22,047,25,24,17,308,15,11,15,071,22*7B
$GPGSV,3,3,11,04,05,057,16,14,01,008,,40,,,*75
08,15,11,15,071,22*7B
$GPGGA,002049.000,4826.4076,N,06831.6233,W,1,09,1.04,24.7,M,-25.8,M,,*6B
$GPGSA,A,3,24,32,04,28,11,01,17,03,06,,,,1.34,1.04,0.85*07
,-25.8,M,,*6B
$GPRMC,002049.000,A,4826.4076,N,06831.6233,W,0.33,61.38,220515,,,A*4B
6B
$GPVTG,61.38,T,,M,0.33,N,0.62,K,A*05
.6233,W,0.33,61.38,220515,,,A*4B
6B
$GPRMC,002046.000,A,4826.4075,N,06831.6237,W,0.31,56.66,220515,,,A*4E
6B
$GPVTG,56.66,T,,M,0.31,N,0.58,K,A*01
.6237,W,0.31,56.66,220515,,,A*4E
6B
$GPRMC,002044.000,A,4826.4074,N,06831.6239,W,0.20,77.35,220515,,,A*46
6B
$GPVTG,77.35,T,,M,0.20,N,0.36,K,A*0C
.6239,W,0.20,77.35,220515,,,A*46
6B
$GPGGA,002043.000,4826.4074,N,06831.6239,W,1,09,1.04,24.7,M,-25.8,M,,*69
$GPGGA,002052.000,4826.4077,N,06831.6230,W,1,09,1.04,24.7,M,-25.8,M,,*63
$GPGGA,002055.000,4826.4076,N,06831.6229,W,1,09,1.04,24.7,M,-25.8,M,,*6D

$GPGSA,A,3,24,32,04,28,11,01,17,03,06,,,,1.34,1.04,0.85*07

$GPRMC,002055.000,A,4826.4076,N,06831.6229,W,0.06,352.88,220515,,,A*73

$GPVTG,352.88,T,,M,0.06,N,0.11,K,A*3F

$GPGSA,A,3,24,32,04,28,11,01,17,03,06,,,,1.34,1.04,0.85*07
ˇˇˇ
$GPRMC,002052.000,A,4826.4077,N,06831.6230,W,0.24,127.05,220515,,,A*78
$GPVTG,127.05,T,,M,0.24,N,0.44,K,A*3A
6230,W,0.24,127.05,220515,,,A*78
$GPGSA,A,3,24,32,04,28,11,01,17,03,06,,,,1.34,1.04,0.85*07
0515,,,A*78
$GPRMC,002043.000,A,4826.4074,N,06831.6239,W,0.15,82.64,220515,,,A*49

$GPVTG,82.64,T,,M,0.15,N,0.28,K,A*0B
.6239,W,0.15,82.64,220515,,,A*49

$GPGGA,002048.000,4826.4076,N,06831.6235,W,1,09,1.04,24.7,M,-25.8,M,,*6C
$GPGSA,A,3,24,32,04,28,11,01,17,03,06,,,,1.34,1.04,0.85*07
,-25.8,M,,*6C
$GPRMC,002048.000,A,4826.4076,N,06831.6235,W,0.37,72.47,220515,,,A*42
6C
$GPVTG,72.47,T,,M,0.37,N,0.69,K,A*00
.6235,W,0.37,72.47,220515,,,A*42
6C
$GPRMC,002045.000,A,4826.4074,N,06831.6238,W,0.28,58.58,220515,,,A*48
6C
$GPGGA,002050.000,4826.4077,N,06831.6232,W,1,09,1.04,24.7,M,-25.8,M,,*63
$GPGSA,A,3,24,32,04,28,11,01,17,03,06,,,,1.34,1.04,0.85*07
,-25.8,M,,*63
$GPRMC,002050.000,A,4826.4077,N,06831.6232,W,0.33,63.15,220515,,,A*4E
63
$GPGGA,002056.000,4826.4076,N,06831.6229,W,1,09,1.15,24.7,M,-25.8,M,,*6E

$GPGSA,A,3,24,32,04,28,11,01,17,03,06,,,,1.97,1.15,1.60*04

$GPGSV,3,1,11,17,76,319,29,28,52,169,28,03,45,094,26,06,36,232,13*7C

$GPGSV,3,2,11,01,31,057,23,32,22,047,28,24,17,308,13,11,15,071,23*7A

$GPGSV,3,3,11,04,05,057,17,14,01,008,,50,,,*75

$GPRMC,002056.000,A,4826.4076,N,06831.6229,W,0.06,90.96,220515,,,A*42

$GPVTG,90.96,T,,M,0.06,N,0.11,K,A*0D

$GPVTG,63.15,T,,M,0.33,N,0.62,K,A*08
ˇˇˇˇˇˇˇˇˇˇˇˇˇˇˇˇˇˇˇˇˇˇˇˇˇ
$GPVTG,58.58,T,,M,0.28,N,0.51,K,A*03
ˇˇˇˇˇˇˇˇˇˇˇˇˇˇˇˇˇˇˇˇˇˇˇˇˇ
$GPGGA,002053.000,4826.4076,N,06831.6229,W,1,09,1.04,24.7,M,-25.8,M,,*6B
$GPGSA,A,3,24,32,04,28,11,01,17,03,06,,,,1.34,1.04,0.85*07
,-25.8,M,,*6B
$GPRMC,002053.000,A,4826.4076,N,06831.6229,W,0.16,159.72,220515,,,A*78
B
$GPVTG,159.72,T,,M,0.16,N,0.30,K,A*31
6229,W,0.16,159.72,220515,,,A*78
B
$GPGGA,002047.000,4826.4075,N,06831.6236,W,1,09,1.04,24.7,M,-25.8,M,,*63
$GPGSA,A,3,24,32,04,28,11,01,17,03,06,,,,1.34,1.04,0.85*07
,-25.8,M,,*63
$GPGSA,A,3,24,32,04,28,11,01,17,03,06,,,,1.34,1.04,0.85*07
,-25.8,M,,*63
$GPRMC,002047.000,A,4826.4075,N,06831.6236,W,0.34,51.72,220515,,,A*49
63
$GPVTG,51.72,T,,M,0.34,N,0.63,K,A*0E
.6236,W,0.34,51.72,220515,,,A*49
63
$GPGGA,002046.000,4826.4075,N,06831.6237,W,1,09,1.04,24.7,M,-25.8,M,,*63
$GPGSA,A,3,24,32,04,28,11,01,17,03,06,,,,1.34,1.04,0.85*07
,-25.8,M,,*63
$GPGGA,002057.000,4826.4076,N,06831.6229,W,1,09,1.04,24.7,M,-25.8,M,,*6F

$GPGSA,A,3,24,32,04,28,11,01,17,03,06,,,,1.34,1.04,0.85*07

$GPRMC,002057.000,A,4826.4076,N,06831.6229,W,0.05,44.29,220515,,,A*4D

$GPVTG,44.29,T,,M,0.05,N,0.10,K,A*02

$GPGSV,3,1,11,17,76,319,30,28,52,169,29,03,45,094,30,06,36,232,18*79
$GPGGA,002051.000,4826.4077,N,06831.6231,W,1,09,1.04,24.7,M,-25.8,M,,*61
$GPGSA,A,3,24,32,04,28,11,01,17,03,06,,,,1.34,1.04,0.85*07
,-25.8,M,,*61
$GPGSV,3,1,11,17,76,319,30,28,52,169,28,03,45,094,27,06,36,232,17*71
*61
$GPGSV,3,2,11,01,31,057,25,32,22,047,27,24,17,308,14,11,15,071,23*74
*61
$GPGSV,3,3,11,04,05,057,17,14,01,008,,44,,,*70
08,14,11,15,071,23*74
*61
$GPRMC,002051.000,A,4826.4077,N,06831.6231,W,0.20,111.73,220515,,,A*7A
1
$GPGGA,002054.000,4826.4076,N,06831.6229,W,1,09,1.04,24.7,M,-25.8,M,,*6C
$GPGSA,A,3,24,32,04,28,11,01,17,03,06,,,,1.34,1.04,0.85*07
,-25.8,M,,*6C
$GPRMC,002054.000,A,4826.4076,N,06831.6229,W,0.08,158.88,220515,,,A*74
C
$GPVTG,158.88,T,,M,0.08,N,0.14,K,A*3C
6229,W,0.08,158.88,220515,,,A*74
C
$GPVTG,111.73,T,,M,0.20,N,0.37,K,A*3E
6229,W,0.08,158.88,220515,,,A*74
C
$GPGSV,3,2,11,01,31,057,28,32,22,047,25,24,17,308,15,11,15,071,22*7B
4
C
$GPGSV,3,3,11,04,05,057,16,14,01,008,,40,,,*75
08,15,11,15,071,22*7B
4
C
$GPGGA,002058.000,4826.4076,N,06831.6229,W,1,09,1.04,24.7,M,-25.8,M,,*60

$GPGSA,A,3,24,32,04,28,11,01,17,03,06,,,,1.34,1.04,0.85*07

$GPRMC,002058.000,A,4826.4076,N,06831.6229,W,0.13,264.58,220515,,,A*73

$GPVTG,264.58,T,,M,0.13,N,0.25,K,A*35

$GPGGA,002049.000,4826.4076,N,06831.6233,W,1,09,1.04,24.7,M,-25.8,M,,*6B
$GPGSA,A,3,24,32,04,28,11,01,17,03,06,,,,1.34,1.04,0.85*07
,-25.8,M,,*6B
$GPRMC,002049.000,A,4826.4076,N,06831.6233,W,0.33,61.38,220515,,,A*4B
6B
$GPVTG,61.38,T,,M,0.33,N,0.62,K,A*05
.6233,W,0.33,61.38,220515,,,A*4B
6B
$GPRMC,002046.000,A,4826.4075,N,06831.6237,W,0.31,56.66,220515,,,A*4E
6B
$GPVTG,56.66,T,,M,0.31,N,0.58,K,A*01
.6237,W,0.31,56.66,220515,,,A*4E
6B
$GPRMC,002044.000,A,4826.4074,N,06831.6239,W,0.20,77.35,220515,,,A*46
$GPVTG,77.35,T,,M,0.20,N,0.36,K,A*0C
.6239,W,0.20,77.35,220515,,,A*46
$GPGGA,002043.000,4826.4074,N,06831.6239,W,1,09,1.04,24.7,M,-25.8,M,,*69
dp
œ¿ø;ˇ$GPGGA,002052.000,4826.4077,N,06831.6230,W,1,09,1.04,24.7,M,-25.8,M,,*63
dp
œ¿ø;ˇ$GPGGA,002055.000,4826.4076,N,06831.6229,W,1,09,1.04,24.7,M,-25.8,M,,*6D
dp
œ¿ø;ˇ$GPGSA,A,3,24,32,04,28,11,01,17,03,06,,,,1.34,1.04,0.85*07
,-25.8,M,,*6D
dp
œ¿ø;ˇ$GPRMC,002055.000,A,4826.4076,N,06831.6229,W,0.06,352.88,220515,,,A*73
D
dp
œ¿ø;ˇ$GPGGA,002059.000,4826.4076,N,06831.6229,W,1,09,1.04,24.7,M,-25.8,M,,*61

$GPGSA,A,3,24,32,04,28,11,01,17,03,06,,,,1.34,1.04,0.85*07

$GPRMC,002059.000,A,4826.4076,N,06831.6229,W,0.17,283.01,220515,,,A*73

$GPVTG,283.01,T,,M,0.17,N,0.32,K,A*32

$GPVTG,352.88,T,,M,0.06,N,0.11,K,A*3F
ˇˇˇˇˇˇˇˇˇˇˇˇˇˇˇˇˇˇˇˇˇˇˇˇ
$GPGSA,A,3,24,32,04,28,11,01,17,03,06,,,,1.34,1.04,0.85*07
ˇˇˇ
$GPRMC,002052.000,A,4826.4077,N,06831.6230,W,0.24,127.05,220515,,,A*78
$GPVTG,127.05,T,,M,0.24,N,0.44,K,A*3A
6230,W,0.24,127.05,220515,,,A*78
$GPGSA,A,3,24,32,04,28,11,01,17,03,06,,,,1.34,1.04,0.85*07
0515,,,A*78
$GPRMC,002043.000,A,4826.4074,N,06831.6239,W,0.15,82.64,220515,,,A*49

$GPVTG,82.64,T,,M,0.15,N,0.28,K,A*0B
.6239,W,0.15,82.64,220515,,,A*49

$GPGGA,002048.000,4826.4076,N,06831.6235,W,1,09,1.04,24.7,M,-25.8,M,,*6C
$GPGSA,A,3,24,32,04,28,11,01,17,03,06,,,,1.34,1.04,0.85*07
,-25.8,M,,*6C
$GPRMC,002048.000,A,4826.4076,N,06831.6235,W,0.37,72.47,220515,,,A*42
6C
$GPVTG,72.47,T,,M,0.37,N,0.69,K,A*00
.6235,W,0.37,72.47,220515,,,A*42
6C
$GPRMC,002045.000,A,4826.4074,N,06831.6238,W,0.28,58.58,220515,,,A*48
6C
$GPGGA,002050.000,4826.4077,N,06831.6232,W,1,09,1.04,24.7,M,-25.8,M,,*63
$GPGGA,002100.000,4826.4076,N,06831.6230,W,1,09,1.04,24.7,M,-25.8,M,,*64

$GPGSA,A,3,24,32,04,28,11,01,17,03,06,,,,1.34,1.04,0.85*07

$GPRMC,002100.000,A,4826.4076,N,06831.6230,W,0.10,276.55,220515,,,A*7A

$GPVTG,276.55,T,,M,0.10,N,0.18,K,A*36

$GPGSA,A,3,24,32,04,28,11,01,17,03,06,,,,1.34,1.04,0.85*07
ˇˇˇ
$GPRMC,002050.000,A,4826.4077,N,06831.6232,W,0.33,63.15,220515,,,A*4E
$GPGGA,002056.000,4826.4076,N,06831.6229,W,1,09,1.15,24.7,M,-25.8,M,,*6E
$GPGSA,A,3,24,32,04,28,11,01,17,03,06,,,,1.97,1.15,1.60*04
,-25.8,M,,*6E
$GPGSV,3,1,11,17,76,319,29,28,52,169,28,03,45,094,26,06,36,232,13*7C
*6E
$GPGSV,3,2,11,01,31,057,23,32,22,047,28,24,17,308,13,11,15,071,23*7A
*6E
$GPGSV,3,3,11,04,05,057,17,14,01,008,,50,,,*75
08,13,11,15,071,23*7A
*6E
$GPRMC,002056.000,A,4826.4076,N,06831.6229,W,0.06,90.96,220515,,,A*42
6E
$GPVTG,90.96,T,,M,0.06,N,0.11,K,A*0D
.6229,W,0.06,90.96,220515,,,A*42
6E
$GPVTG,63.15,T,,M,0.33,N,0.62,K,A*08
.6229,W,0.06,90.96,220515,,,A*42
6E
$GPVTG,58.58,T,,M,0.28,N,0.51,K,A*03
.6229,W,0.06,90.96,220515,,,A*42
6E
$GPGGA,002053.000,4826.4076,N,06831.6229,W,1,09,1.04,24.7,M,-25.8,M,,*6B
$GPGSA,A,3,24,32,04,28,11,01,17,03,06,,,,1.34,1.04,0.85*07
,-25.8,M,,*6B
$GPRMC,002053.000,A,4826.4076,N,06831.6229,W,0.16,159.72,220515,,,A*78
B
$GPVTG,159.72,T,,M,0.16,N,0.30,K,A*31
6229,W,0.16,159.72,220515,,,A*78
B
$GPGGA,002101.000,4826.4076,N,06831.6230,W,1,09,1.04,24.7,M,-25.8,M,,*65

$GPGSA,A,3,24,32,04,28,11,01,17,03,06,,,,1.34,1.04,0.85*07

$GPGSV,3,1,11,17,76,319,29,28,52,169,28,03,45,094,26,06,36,232,15*7A

$GPGSV,3,2,11,01,31,057,23,32,22,047,29,24,17,308,15,11,15,071,24*7A

$GPGSV,3,3,11,04,05,057,17,14,01,008,,42,,,*76

$GPRMC,002101.000,A,4826.4076,N,06831.6230,W,0.10,311.62,220515,,,A*7F

$GPVTG,311.62,T,,M,0.10,N,0.19,K,A*33

$GPGGA,002047.000,4826.4075,N,06831.6236,W,1,09,1.04,24.7,M,-25.8,M,,*63
$GPGSA,A,3,24,32,04,28,11,01,17,03,06,,,,1.34,1.04,0.85*07
,-25.8,M,,*63
$GPGSA,A,3,24,32,04,28,11,01,17,03,06,,,,1.34,1.04,0.85*07
,-25.8,M,,*63
$GPRMC,002047.000,A,4826.4075,N,06831.6236,W,0.34,51.72,220515,,,A*49
63
$GPVTG,51.72,T,,M,0.34,N,0.63,K,A*0E
.6236,W,0.34,51.72,220515,,,A*49
63
$GPGGA,002046.000,4826.4075,N,06831.6237,W,1,09,1.04,24.7,M,-25.8,M,,*63
$GPGSA,A,3,24,32,04,28,11,01,17,03,06,,,,1.34,1.04,0.85*07
,-25.8,M,,*63
$GPGGA,002057.000,4826.4076,N,06831.6229,W,1,09,1.04,24.7,M,-25.8,M,,*6F
$GPGSA,A,3,24,32,04,28,11,01,17,03,06,,,,1.34,1.04,0.85*07
,-25.8,M,,*6F
$GPRMC,002057.000,A,4826.4076,N,06831.6229,W,0.05,44.29,220515,,,A*4D
6F
$GPVTG,44.29,T,,M,0.05,N,0.10,K,A*02
.6229,W,0.05,44.29,220515,,,A*4D
6F
$GPGSV,3,1,11,17,76,319,30,28,52,169,29,03,45,094,30,06,36,232,18*79

6F
$GPGGA,002051.000,4826.4077,N,06831.6231,W,1,09,1.04,24.7,M,-25.8,M,,*61
$GPGGA,002102.000,4826.4076,N,06831.6231,W,1,09,1.04,24.7,M,-25.8,M,,*67

$GPGSA,A,3,24,32,04,28,11,01,17,03,06,,,,1.34,1.04,0.85*07

$GPRMC,002102.000,A,4826.4076,N,06831.6231,W,0.17,335.23,220515,,,A*79

$GPVTG,335.23,T,,M,0.17,N,0.31,K,A*3D

$GPGSA,A,3,24,32,04,28,11,01,17,03,06,,,,1.34,1.04,0.85*07
ˇˇˇ
$GPGSV,3,1,11,17,76,319,30,28,52,169,28,03,45,094,27,06,36,232,17*71
$GPGSV,3,2,11,01,31,057,25,32,22,047,27,24,17,308,14,11,15,071,23*74
$GPGSV,3,3,11,04,05,057,17,14,01,008,,44,,,*70
08,14,11,15,071,23*74
$GPRMC,002051.000,A,4826.4077,N,06831.6231,W,0.20,111.73,220515,,,A*7A
$GPGGA,002054.000,4826.4076,N,06831.6229,W,1,09,1.04,24.7,M,-25.8,M,,*6C
$GPGSA,A,3,24,32,04,28,11,01,17,03,06,,,,1.34,1.04,0.85*07
,-25.8,M,,*6C
$GPRMC,002054.000,A,4826.4076,N,06831.6229,W,0.08,158.88,220515,,,A*74
C
$GPVTG,158.88,T,,M,0.08,N,0.14,K,A*3C
6229,W,0.08,158.88,220515,,,A*74
C
$GPVTG,111.73,T,,M,0.20,N,0.37,K,A*3E
6229,W,0.08,158.88,220515,,,A*74
C
$GPGSV,3,2,11,01,31,057,28,32,22,047,25,24,17,308,15,11,15,071,22*7B
4
C
$GPGSV,3,3,11,04,05,057,16,14,01,008,,40,,,*75
08,15,11,15,071,22*7B
4
C
$GPGGA,002103.000,4826.4077,N,06831.6231,W,1,09,1.04,24.7,M,-25.8,M,,*67

$GPGSA,A,3,24,32,04,28,11,01,17,03,06,,,,1.34,1.04,0.85*07

$GPRMC,002103.000,A,4826.4077,N,06831.6231,W,0.15,309.99,220515,,,A*75

$GPVTG,309.99,T,,M,0.15,N,0.28,K,A*39

$GPGGA,002058.000,4826.4076,N,06831.6229,W,1,09,1.04,24.7,M,-25.8,M,,*60
$GPGSA,A,3,24,32,04,28,11,01,17,03,06,,,,1.34,1.04,0.85*07
,-25.8,M,,*60
$GPRMC,002058.000,A,4826.4076,N,06831.6229,W,0.13,264.58,220515,,,A*73
0
$GPVTG,264.58,T,,M,0.13,N,0.25,K,A*35
6229,W,0.13,264.58,220515,,,A*73
0
$GPGGA,002049.000,4826.4076,N,06831.6233,W,1,09,1.04,24.7,M,-25.8,M,,*6B
$GPGSA,A,3,24,32,04,28,11,01,17,03,06,,,,1.34,1.04,0.85*07
,-25.8,M,,*6B
$GPRMC,002049.000,A,4826.4076,N,06831.6233,W,0.33,61.38,220515,,,A*4B
6B
$GPVTG,61.38,T,,M,0.33,N,0.62,K,A*05
.6233,W,0.33,61.38,220515,,,A*4B
6B
$GPRMC,002046.000,A,4826.4075,N,06831.6237,W,0.31,56.66,220515,,,A*4E
6B
$GPVTG,56.66,T,,M,0.31,N,0.58,K,A*01
.6237,W,0.31,56.66,220515,,,A*4E
6B
$GPRMC,002044.000,A,4826.4074,N,06831.6239,W,0.20,77.35,220515,,,A*46
6B
$GPVTG,77.35,T,,M,0.20,N,0.36,K,A*0C
.6239,W,0.20,77.35,220515,,,A*46
6B
$33,W,0.33,61.38,220515,,,A*4B
6B
$GPVTG,61.38,T,,M,0.33,N,0.62,K,A*05
.6233,W,0.33,61.38,220515,,,A*4B
6B
$GPRMC,002046.000,A,4826.4075,N,06831.6237,W,0.31,56.66,220515,,,A*4E
)~%*f1$GPVTG,56.66,T,,M,0.31,N,0.58,K,A*01
.6237,W,0.31,56.66,220515,,,A*4E
)~%*f1$GPRMC,002044.000,A,4826.4074,N,06831.6239,W,0.20,77.35,220515,,,A*46
)~%*f1$GPVTG,77.35,T,,M,0.20,N,0.36,K,A*0C
.6239,W,0.20,77.35,220515,,,A*46
)~%*f1$GPVTG,61.38,T,,M,0.33,N,0.62,K,A*05
.6239,W,0.20,77.35,220515,,,A*46
)~%*f1$GPRMC,002046.000,A,4826.4075,N,06831.6237,W,0.31,56.66,220515,,,A*4E
)~%*f1$GPGGA,002111.000,4826.4079,N,06831.6237,W,1,09,1.04,24.7,M,-25.8,M,,*6C

$GPGSA,A,3,24,32,04,28,11,01,17,03,06,,,,1.34,1.04,0.85*07

$GPGSV,3,1,11,17,76,319,29,28,52,169,29,03,45,093,26,06,37,232,15*7D

$GPGSV,3,2,11,01,31,057,24,51,23,227,,32,22,047,28,24,17,308,16*79

$GPGSV,3,3,11,11,15,071,25,04,05,057,18,14,01,008,*4A

$GPRMC,002111.000,A,4826.4079,N,06831.6237,W,0.23,278.73,220515,,,A*78

$GPVTG,278.73,T,,M,0.23,N,0.42,K,A*33

$GPVTG,56.66,T,,M,0.31,N,0.58,K,A*01
ˇˇˇˇˇˇˇˇˇˇˇˇˇˇˇˇˇˇˇˇˇˇˇˇˇ
$GPRMC,002044.000,A,4826.4074,N,06831.6239,W,0.20,77.35,220515,,,A*46
$GPVTG,77.35,T,,M,0.20,N,0.36,K,A*0C
.6239,W,0.20,77.35,220515,,,A*46
$GPVTG,61.38,T,,M,0.33,N,0.62,K,A*05
.6239,W,0.20,77.35,220515,,,A*46
$GPRMC,002046.000,A,4826.4075,N,06831.6237,W,0.31,56.66,220515,,,A*4E
$GPGGA,002111.000,4826.4079,N,06831.6237,W,1,09,1.04,24.7,M,-25.8,M,,*6C
$GPGSA,A,3,24,32,04,28,11,01,17,03,06,,,,1.34,1.04,0.85*07
,-25.8,M,,*6C
$GPGSV,3,1,11,17,76,319,29,28,52,169,29,03,45,093,26,06,37,232,15*7D
*6C
$GPGSV,3,2,11,01,31,057,24,51,23,227,,32,22,047,28,24,17,308,16*79
D
*6C
$GPGSV,3,3,11,11,15,071,25,04,05,057,18,14,01,008,*4A
17,308,16*79
D
*6C
$GPRMC,002111.000,A,4826.4079,N,06831.6237,W,0.23,278.73,220515,,,A*78
C
$GPVTG,278.73,T,,M,0.23,N,0.42,K,A*33
6237,W,0.23,278.73,220515,,,A*78
C
$GPVTG,56.66,T,,M,0.31,N,0.58,K,A*01

6237,W,0.23,278.73,220515,,,A*78
C
$GPGGA,002112.000,4826.4080,N,06831.6238,W,1,09,1.04,24.7,M,-25.8,M,,*66

$GPGSA,A,3,24,32,04,28,11,01,17,03,06,,,,1.34,1.04,0.85*07

$GPRMC,002112.000,A,4826.4080,N,06831.6238,W,0.26,287.24,220515,,,A*75

$GPVTG,287.24,T,,M,0.26,N,0.48,K,A*3E

$GPRMC,002044.000,A,4826.4074,N,06831.6239,W,0.20,77.35,220515,,,A*46
$GPVTG,77.35,T,,M,0.20,N,0.36,K,A*0C
.6239,W,0.20,77.35,220515,,,A*46
$GPVTG,61.38,T,,M,0.33,N,0.62,K,A*05
.6239,W,0.20,77.35,220515,,,A*46
$GPRMC,002046.000,A,4826.4075,N,06831.6237,W,0.31,56.66,220515,,,A*4E
$GPGGA,002111.000,4826.4079,N,06831.6237,W,1,09,1.04,24.7,M,-25.8,M,,*6C
$GPGSA,A,3,24,32,04,28,11,01,17,03,06,,,,1.34,1.04,0.85*07
,-25.8,M,,*6C
$GPGSV,3,1,11,17,76,319,29,28,52,169,29,03,45,093,26,06,37,232,15*7D
*6C
$GPGSV,3,2,11,01,31,057,24,51,23,227,,32,22,047,28,24,17,308,16*79
D
*6C
$GPGSV,3,3,11,11,15,071,25,04,05,057,18,14,01,008,*4A
17,308,16*79
D
*6C
$GPRMC,002111.000,A,4826.4079,N,06831.6237,W,0.23,278.73,220515,,,A*78
C
$GPVTG,278.73,T,,M,0.23,N,0.42,K,A*33
6237,W,0.23,278.73,220515,,,A*78
C
$GPVTG,56.66,T,,M,0.31,N,0.58,K,A*01

6237,W,0.23,278.73,220515,,,A*78
C
$GPGGA,002112.000,4826.4080,N,06831.6238,W,1,09,1.04,24.7,M,-25.8,M,,*66
$GPGGA,002113.000,4826.4080,N,06831.6240,W,1,09,1.04,24.7,M,-25.8,M,,*68

$GPGSA,A,3,24,32,04,28,11,01,17,03,06,,,,1.34,1.04,0.85*07

$GPRMC,002113.000,A,4826.4080,N,06831.6240,W,0.21,294.51,220515,,,A*7C

$GPVTG,294.51,T,,M,0.21,N,0.39,K,A*3F

$GPGSA,A,3,24,32,04,28,11,01,17,03,06,,,,1.34,1.04,0.85*07
ˇˇˇ
$GPRMC,002112.000,A,4826.4080,N,06831.6238,W,0.26,287.24,220515,,,A*75
$GPVTG,287.24,T,,M,0.26,N,0.48,K,A*3E
6238,W,0.26,287.24,220515,,,A*75
$GPRMC,002044.000,A,4826.4074,N,06831.6239,W,0.20,77.35,220515,,,A*46

$GPVTG,77.35,T,,M,0.20,N,0.36,K,A*0C
.6239,W,0.20,77.35,220515,,,A*46

$GPVTG,61.38,T,,M,0.33,N,0.62,K,A*05
.6239,W,0.20,77.35,220515,,,A*46

$GPRMC,002046.000,A,4826.4075,N,06831.6237,W,0.31,56.66,220515,,,A*4E

$GPGGA,002111.000,4826.4079,N,06831.6237,W,1,09,1.04,24.7,M,-25.8,M,,*6C
$GPGSA,A,3,24,32,04,28,11,01,17,03,06,,,,1.34,1.04,0.85*07
,-25.8,M,,*6C
$GPGSV,3,1,11,17,76,319,29,28,52,169,29,03,45,093,26,06,37,232,15*7D
*6C
$GPGSV,3,2,11,01,31,057,24,51,23,227,,32,22,047,28,24,17,308,16*79
D
*6C
$GPGSV,3,3,11,11,15,071,25,04,05,057,18,14,01,008,*4A
17,308,16*79
D
*6C
$GPRMC,002111.000,A,4826.4079,N,06831.6237,W,0.23,278.73,220515,,,A*78
C
$GPVTG,278.73,T,,M,0.23,N,0.42,K,A*33
6237,W,0.23,278.73,220515,,,A*78
C
$GPGGA,002114.000,4826.4080,N,06831.6240,W,1,09,1.04,24.7,M,-25.8,M,,*6F

$GPGSA,A,3,24,32,04,28,11,01,17,03,06,,,,1.34,1.04,0.85*07

$GPRMC,002114.000,A,4826.4080,N,06831.6240,W,0.15,295.56,220515,,,A*7A

$GPVTG,295.56,T,,M,0.15,N,0.27,K,A*31

$GPVTG,56.66,T,,M,0.31,N,0.58,K,A*01
ˇˇˇˇˇˇˇˇˇˇˇˇˇˇˇˇˇˇˇˇˇˇˇˇˇ
$GPGGA,002112.000,4826.4080,N,06831.6238,W,1,09,1.04,24.7,M,-25.8,M,,*66
$GPGGA,002113.000,4826.4080,N,06831.6240,W,1,09,1.04,24.7,M,-25.8,M,,*68
$GPGSA,A,3,24,32,04,28,11,01,17,03,06,,,,1.34,1.04,0.85*07
,-25.8,M,,*68
$GPRMC,002113.000,A,4826.4080,N,06831.6240,W,0.21,294.51,220515,,,A*7C
8
$GPVTG,294.51,T,,M,0.21,N,0.39,K,A*3F
6240,W,0.21,294.51,220515,,,A*7C
8
$GPGSA,A,3,24,32,04,28,11,01,17,03,06,,,,1.34,1.04,0.85*07
0515,,,A*7C
8
$GPRMC,002112.000,A,4826.4080,N,06831.6238,W,0.26,287.24,220515,,,A*75
8
$GPVTG,287.24,T,,M,0.26,N,0.48,K,A*3E
6238,W,0.26,287.24,220515,,,A*75
8
$GPRMC,002044.000,A,4826.4074,N,06831.6239,W,0.20,77.35,220515,,,A*46

8
$GPVTG,77.35,T,,M,0.20,N,0.36,K,A*0C
.6239,W,0.20,77.35,220515,,,A*46

8
$GPVTG,61.38,T,,M,0.33,N,0.62,K,A*05
.6239,W,0.20,77.35,220515,,,A*46

8
$GPRMC,002046.000,A,4826.4075,N,06831.6237,W,0.31,56.66,220515,,,A*4E

8
$GPGGA,002115.000,4826.4080,N,06831.6241,W,1,09,1.04,24.7,M,-25.8,M,,*6F

$GPGSA,A,3,24,32,04,28,11,01,17,03,06,,,,1.34,1.04,0.85*07

$GPRMC,002115.000,A,4826.4080,N,06831.6241,W,0.20,300.46,220515,,,A*70

$GPVTG,300.46,T,,M,0.20,N,0.37,K,A*3A

$GPGGA,002111.000,4826.4079,N,06831.6237,W,1,09,1.04,24.7,M,-25.8,M,,*6C
$GPGSA,A,3,24,32,04,28,11,01,17,03,06,,,,1.34,1.04,0.85*07
,-25.8,M,,*6C
$GPGSV,3,1,11,17,76,319,29,28,52,169,29,03,45,093,26,06,37,232,15*7D
*6C
$GPGSV,3,2,11,01,31,057,24,51,23,227,,32,22,047,28,24,17,308,16*79
D
*6C
$GPGSV,3,3,11,11,15,071,25,04,05,057,18,14,01,008,*4A
17,308,16*79
D
*6C
$GPRMC,002111.000,A,4826.4079,N,06831.6237,W,0.23,278.73,220515,,,A*78
C
$GPVTG,278.73,T,,M,0.23,N,0.42,K,A*33
6237,W,0.23,278.73,220515,,,A*78
C
$GPGGA,002114.000,4826.4080,N,06831.6240,W,1,09,1.04,24.7,M,-25.8,M,,*6F
$GPGSA,A,3,24,32,04,28,11,01,17,03,06,,,,1.34,1.04,0.85*07
,-25.8,M,,*6F
$GPRMC,002114.000,A,4826.4080,N,06831.6240,W,0.15,295.56,220515,,,A*7A
F
$GPVTG,295.56,T,,M,0.15,N,0.27,K,A*31
6240,W,0.15,295.56,220515,,,A*7A
F
$GPVTG,56.66,T,,M,0.31,N,0.58,K,A*01

6240,W,0.15,295.56,220515,,,A*7A
F
$GPGGA,002112.000,4826.4080,N,06831.6238,W,1,09,1.04,24.7,M,-25.8,M,,*66
$GPGGA,002113.000,4826.4080,N,06831.6240,W,1,09,1.04,24.7,M,-25.8,M,,*68
$GPGGA,002116.000,4826.4081,N,06831.6242,W,1,09,1.04,24.7,M,-25.8,M,,*6E

$GPGSA,A,3,24,32,04,28,11,01,17,03,06,,,,1.34,1.04,0.85*07

$GPGSV,3,1,11,17,77,320,29,28,52,169,29,03,45,093,26,06,37,232,15*76

$GPGSV,3,2,11,01,31,057,24,51,23,227,,32,22,047,28,24,17,308,16*79

$GPGSV,3,3,11,11,15,071,24,04,05,057,18,14,01,007,*44

$GPRMC,002116.000,A,4826.4081,N,06831.6242,W,0.08,258.79,220515,,,A*7B

$GPVTG,258.79,T,,M,0.08,N,0.15,K,A*30

$GPGSA,A,3,24,32,04,28,11,01,17,03,06,,,,1.34,1.04,0.85*07
ˇˇˇ
$GPRMC,002113.000,A,4826.4080,N,06831.6240,W,0.21,294.51,220515,,,A*7C
$GPVTG,294.51,T,,M,0.21,N,0.39,K,A*3F
6240,W,0.21,294.51,220515,,,A*7C
$GPGSA,A,3,24,32,04,28,11,01,17,03,06,,,,1.34,1.04,0.85*07
0515,,,A*7C
$GPRMC,002112.000,A,4826.4080,N,06831.6238,W,0.26,287.24,220515,,,A*75
$GPVTG,287.24,T,,M,0.26,N,0.48,K,A*3E
6238,W,0.26,287.24,220515,,,A*75
$GPRMC,002044.000,A,4826.4074,N,06831.6239,W,0.20,77.35,220515,,,A*46
0*
iñ1%–`$GPVTG,77.35,T,,M,0.20,N,0.36,K,A*0C
.6239,W,0.20,77.35,220515,,,A*46
0*
iñ1%–`$GPVTG,61.38,T,,M,0.33,N,0.62,K,A*05
.6239,W,0.20,77.35,220515,,,A*46
0*
iñ1%–`$GPRMC,002046.000,A,4826.4075,N,06831.6237,W,0.31,56.66,220515,,,A*4E
0*
iñ1%–`$GPGGA,002115.000,4826.4080,N,06831.6241,W,1,09,1.04,24.7,M,-25.8,M,,*6F
iñ1%–`$GPGSA,A,3,24,32,04,28,11,01,17,03,06,,,,1.34,1.04,0.85*07
,-25.8,M,,*6F
iñ1%–`$GPRMC,002115.000,A,4826.4080,N,06831.6241,W,0.20,300.46,220515,,,A*70
F
iñ1%–`$GPGGA,002117.000,4826.4081,N,06831.6242,W,1,09,1.04,24.7,M,-25.8,M,,*6F

$GPGSA,A,3,24,32,04,28,11,01,17,03,06,,,,1.34,1.04,0.85*07

$GPRMC,002117.000,A,4826.4081,N,06831.6242,W,0.11,260.70,220515,,,A*70

$GPVTG,260.70,T,,M,0.11,N,0.21,K,A*3D

$GPVTG,300.46,T,,M,0.20,N,0.37,K,A*3A
ˇˇˇˇˇˇˇˇˇˇˇˇˇˇˇˇˇˇˇˇˇˇˇˇ
$GPGGA,002111.000,4826.4079,N,06831.6237,W,1,09,1.04,24.7,M,-25.8,M,,*6C
$GPGSA,A,3,24,32,04,28,11,01,17,03,06,,,,1.34,1.04,0.85*07
,-25.8,M,,*6C
$GPGSV,3,1,11,17,76,319,29,28,52,169,29,03,45,093,26,06,37,232,15*7D
*6C
$GPGSV,3,2,11,01,31,057,24,51,23,227,,32,22,047,28,24,17,308,16*79
D
*6C
$GPGSV,3,3,11,11,15,071,25,04,05,057,18,14,01,008,*4A
17,308,16*79
D
*6C
$GPRMC,002111.000,A,4826.4079,N,06831.6237,W,0.23,278.73,220515,,,A*78
C
$GPVTG,278.73,T,,M,0.23,N,0.42,K,A*33
6237,W,0.23,278.73,220515,,,A*78
C
$GPGGA,002114.000,4826.4080,N,06831.6240,W,1,09,1.04,24.7,M,-25.8,M,,*6F
$GPGSA,A,3,24,32,04,28,11,01,17,03,06,,,,1.34,1.04,0.85*07
,-25.8,M,,*6F
$GPRMC,002114.000,A,4826.4080,N,06831.6240,W,0.15,295.56,220515,,,A*7A
F
$GPVTG,295.56,T,,M,0.15,N,0.27,K,A*31
6240,W,0.15,295.56,220515,,,A*7A
F
$GPVTG,56.66,T,,M,0.31,N,0.58,K,A*01

6240,W,0.15,295.56,220515,,,A*7A
F
$GPGGA,002118.000,4826.4081,N,06831.6243,W,1,09,1.04,24.7,M,-25.8,M,,*61

$GPGSA,A,3,24,32,04,28,11,01,17,03,06,,,,1.34,1.04,0.85*07

$GPRMC,002118.000,A,4826.4081,N,06831.6243,W,0.14,304.68,220515,,,A*71

$GPVTG,304.68,T,,M,0.14,N,0.26,K,A*35

$GPGGA,002112.000,4826.4080,N,06831.6238,W,1,09,1.04,24.7,M,-25.8,M,,*66
$GPGGA,002113.000,4826.4080,N,06831.6240,W,1,09,1.04,24.7,M,-25.8,M,,*68
$GPGGA,002116.000,4826.4081,N,06831.6242,W,1,09,1.04,24.7,M,-25.8,M,,*6E
$GPGSA,A,3,24,32,04,28,11,01,17,03,06,,,,1.34,1.04,0.85*07
,-25.8,M,,*6E
$GPGSV,3,1,11,17,77,320,29,28,52,169,29,03,45,093,26,06,37,232,15*76
*6E
$GPGSV,3,2,11,01,31,057,24,51,23,227,,32,22,047,28,24,17,308,16*79
6
*6E
$GPGSV,3,3,11,11,15,071,24,04,05,057,18,14,01,007,*44
17,308,16*79
6
*6E
$GPRMC,002116.000,A,4826.4081,N,06831.6242,W,0.08,258.79,220515,,,A*7B
E
$GPVTG,258.79,T,,M,0.08,N,0.15,K,A*30
6242,W,0.08,258.79,220515,,,A*7B
E
$GPGSA,A,3,24,32,04,28,11,01,17,03,06,,,,1.34,1.04,0.85*07
0515,,,A*7B
E
$GPRMC,002113.000,A,4826.4080,N,06831.6240,W,0.21,294.51,220515,,,A*7C
E
$GPVTG,294.51,T,,M,0.21,N,0.39,K,A*3F
6240,W,0.21,294.51,220515,,,A*7C
E
$GPGSA,A,3,24,32,04,28,11,01,17,03,06,,,,1.34,1.04,0.85*07
0515,,,A*7C
E
$GPGGA,002119.000,4826.4081,N,06831.6243,W,1,09,1.04,24.7,M,-25.8,M,,*60

$GPGSA,A,3,24,32,04,28,11,01,17,03,06,,,,1.34,1.04,0.85*07

$GPRMC,002119.000,A,4826.4081,N,06831.6243,W,0.17,270.47,220515,,,A*7C

$GPVTG,270.47,T,,M,0.17,N,0.31,K,A*3F

$GPVTG,61.38,T,,M,0.33,N,0.62,K,A*05
.6238,W,0.26,287.24^CF®^Ciñ1%–`$GPVTG,77.35,T,,M,0.20,N,0.36,K,A*0C
$GPRMC,002046.000,A,4826.4075,N,06831.6237,W,0.31,56.66,220515,,,A*4E
PVTG,77.35,T,,M,0.20,N,0.36,K,A*0C
$GPGGA,002115.000,4826.4080,N,06831.6241,W,1,09,1.04,24.7,M,-25.8,M,,*6F
G,77.35,T,,M,0.20,N,0.36,K,A*0C
$GPGSA,A,3,24,32,04,28,11,01,17,03,06,,,,1.34,1.04,0.85*07
,-25.8,M,,*6F
G,77.35,T,,M,0.20,N,0.36,K,A*0C
$GPRMC,002115.000,A,4826.4080,N,06831.6241,W,0.20,300.46,220515,,,A*70
F
G,77.35,T,,M,0.20,N,0.36,K,A*0C
$GPGGA,002117.000,4826.4081,N,06831.6242,W,1,09,1.04,24.7,M,-25.8,M,,*6F
G,77.35,T,,M,0.20,N,0.36,K,A*0C
$GPGSA,A,3,24,32,04,28,11,01,17,03,06,,,,1.34,1.04,0.85*07
,-25.8,M,,*6F
G,77.35,T,,M,0.20,N,0.36,K,A*0C
$GPRMC,002117.000,A,4826.4081,N,06831.6242,W,0.11,260.70,220515,,,A*70
F
G,77.35,T,,M,0.20,N,0.36,K,A*0C
$GPVTG,260.70,T,,M,0.11,N,0.21,K,A*3D
6242,W,0.11,260.70,220515,,,A*70
F
G,77.35,T,,M,0.20,N,0.36,K,A*0C
$GPVTG,300.46,T,,M,0.20,N,0.37,K,A*3A
6242,W,0.11,260.70,220515,,,A*70
F
G,77.35,T,,M,0.20,N,0.36,K,A*0C
$GPGGA,002111.000,4826.4079,N,06831.6237,W,1,09,1.04,24.7,M,-25.8,M,,*6C
G,77.35,T,,M,0.20,N,0.36,K,A*0C
$GPGSA,A,3,24,32,04,28,11,01,17,03,06,,,,1.34,1.04,0.85*07
,-25.8,M,,*6C
G,77.35,T,,M,0.20,N,0.36,K,A*0C
$GPGGA,002120.000,4826.4081,N,06831.6244,W,1,09,1.04,24.7,M,-25.8,M,,*6D

$GPGSA,A,3,24,32,04,28,11,01,17,03,06,,,,1.34,1.04,0.85*07

$GPRMC,002120.000,A,4826.4081,N,06831.6244,W,0.17,240.05,220515,,,A*74

$GPVTG,240.05,T,,M,0.17,N,0.31,K,A*3A

$GPGSV,3,1,11,17,76,319,29,28,52,169,29,03,45,093,26,06,37,232,15*7D
$GPGSV,3,2,11,01,31,057,24,51,23,227,,32,22,047,28,24,17,308,16*79
D
$GPGSV,3,3,11,11,15,071,25,04,05,057,18,14,01,008,*4A
17,308,16*79
D
$GPRMC,002111.000,A,4826.4079,N,06831.6237,W,0.23,278.73,220515,,,A*78
$GPVTG,278.73,T,,M,0.23,N,0.42,K,A*33
6237,W,0.23,278.73,220515,,,A*78
$GPGGA,002114.000,4826.4080,N,06831.6240,W,1,09,1.04,24.7,M,-25.8,M,,*6F
$GPGSA,A,3,24,32,04,28,11,01,17,03,06,,,,1.34,1.04,0.85*07
,-25.8,M,,*6F
$GPRMC,002114.000,A,4826.4080,N,06831.6240,W,0.15,295.56,220515,,,A*7A
F
$GPVTG,295.56,T,,M,0.15,N,0.27,K,A*31
6240,W,0.15,295.56,220515,,,A*7A
F
$GPVTG,56.66,T,,M,0.31,N,0.58,K,A*01

6240,W,0.15,295.56,220515,,,A*7A
F
$GPGGA,002118.000,4826.4081,N,06831.6243,W,1,09,1.04,24.7,M,-25.8,M,,*61
$GPGSA,A,3,24,32,04,28,11,01,17,03,06,,,,1.34,1.04,0.85*07
,-25.8,M,,*61
$GPRMC,002118.000,A,4826.4081,N,06831.6243,W,0.14,304.68,220515,,,A*71
1
$GPGGA,002121.000,4826.4081,N,06831.6244,W,1,09,1.04,24.7,M,-25.8,M,,*6C

$GPGSA,A,3,24,32,04,28,11,01,17,03,06,,,,1.34,1.04,0.85*07

$GPGSV,3,1,11,17,77,320,29,28,52,169,29,03,45,093,25,06,37,232,12*72

$GPGSV,3,2,11,01,31,057,22,32,22,047,28,24,17,308,14,11,15,071,23*7C

$GPGSV,3,3,11,33,15,119,,04,05,057,18,14,01,007,*4D

$GPRMC,002121.000,A,4826.4081,N,06831.6244,W,0.08,277.77,220515,,,A*7A

$GPVTG,277.77,T,,M,0.08,N,0.15,K,A*33

$GPVTG,304.68,T,,M,0.14,N,0.26,K,A*35
ˇˇˇˇˇˇˇˇˇˇˇˇˇˇˇˇˇˇˇˇˇˇˇˇ
$GPGGA,002112.000,4826.4080,N,06831.6238,W,1,09,1.04,24.7,M,-25.8,M,,*66
$GPGGA,002113.000,4826.4080,N,06831.6240,W,1,09,1.04,24.7,M,-25.8,M,,*68
$GPGGA,002116.000,4826.4081,N,06831.6242,W,1,09,1.04,24.7,M,-25.8,M,,*6E
$GPGSA,A,3,24,32,04,28,11,01,17,03,06,,,,1.34,1.04,0.85*07
,-25.8,M,,*6E
$GPGSV,3,1,11,17,77,320,29,28,52,169,29,03,45,093,26,06,37,232,15*76
*6E
$GPGSV,3,2,11,01,31,057,24,51,23,227,,32,22,047,28,24,17,308,16*79
6
*6E
$GPGSV,3,3,11,11,15,071,24,04,05,057,18,14,01,007,*44
17,308,16*79
6
*6E
$GPRMC,002116.000,A,4826.4081,N,06831.6242,W,0.08,258.79,220515,,,A*7B
E
$GPVTG,258.79,T,,M,0.08,N,0.15,K,A*30
6242,W,0.08,258.79,220515,,,A*7B
E
$GPGSA,A,3,24,32,04,28,11,01,17,03,06,,,,1.34,1.04,0.85*07
0515,,,A*7B
E
$GPRMC,002113.000,A,4826.4080,N,06831.6240,W,0.21,294.51,220515,,,A*7C
E
$GPVTG,294.51,T,,M,0.21,N,0.39,K,A*3F
6240,W,0.21,294.51,220515,,,A*7C
E
$GPGGA,002122.000,4826.4081,N,06831.6245,W,1,09,1.04,24.7,M,-25.8,M,,*6E

$GPGSA,A,3,24,32,04,28,11,01,17,03,06,,,,1.34,1.04,0.85*07

$GPRMC,002122.000,A,4826.4081,N,06831.6245,W,0.13,320.96,220515,,,A*7E

$GPVTG,320.96,T,,M,0.13,N,0.24,K,A*37

$GPGSA,A,3,24,32,04,28,11,01,17,03,06,,,,1.34,1.04,0.85*07
ˇˇˇ
$GPGGA,002119.000,4826.4081,N,06831.6243,W,1,09,1.04,24.7,M,-25.8,M,,*60
$GPGSA,A,3,24,32,04,28,11,01,17,03,06,,,,1.34,1.04,0.85*07
,-25.8,M,,*60
$GPRMC,002119.000,A,4826.4081,N,06831.6243,W,0.17,270.47,220515,,,A*7C
0
$GPVTG,270.47,T,,M,0.17,N,0.31,K,A*3F
6243,W,0.17,270.47,220515,,,A*7C
0
$GPVTG,61.38,T,,M,0.33,N,0.62,K,A*05

6243,W,0.17,270.47,220515,,,A*7C
0
$GPRMC,002046.000,A,4826.4075,N,06831.6237,W,0.31,56.66,220515,,,A*4E

0
$GPGGA,002115.000,4826.4080,N,06831.6241,W,1,09,1.04,24.7,M,-25.8,M,,*6F
ûy≤$GPGSA,A,3,24,32,04,28,11,01,17,03,06,,,,1.34,1.04,0.85*07
,-25.8,M,,*6F
ûy≤$GPRMC,002115.000,A,4826.4080,N,06831.6241,W,0.20,300.46,220515,,,A*70
F
ûy≤$GPGGA,002117.000,4826.4081,N,06831.6242,W,1,09,1.04,24.7,M,-25.8,M,,*6F
ûy≤$GPGSA,A,3,24,32,04,28,11,01,17,03,06,,,,1.34,1.04,0.85*07
,-25.8,M,,*6F
ûy≤$GPGGA,002123.000,4826.4081,N,06831.6245,W,1,09,1.04,24.7,M,-25.8,M,,*6F

$GPGSA,A,3,24,32,04,28,11,01,17,03,06,,,,1.34,1.04,0.85*07

$GPRMC,002123.000,A,4826.4081,N,06831.6245,W,0.16,287.46,220515,,,A*7B

$GPVTG,287.46,T,,M,0.16,N,0.29,K,A*3E

$GPRMC,002117.000,A,4826.4081,N,06831.6242,W,0.11,260.70,220515,,,A*70
$GPVTG,260.70,T,,M,0.11,N,0.21,K,A*3D
6242,W,0.11,260.70,220515,,,A*70
$GPVTG,300.46,T,,M,0.20,N,0.37,K,A*3A
6242,W,0.11,260.70,220515,,,A*70
$GPGGA,002111.000,4826.4079,N,06831.6237,W,1,09,1.04,24.7,M,-25.8,M,,*6C
$GPGSA,A,3,24,32,04,28,11,01,17,03,06,,,,1.34,1.04,0.85*07
,-25.8,M,,*6C
$GPGGA,002120.000,4826.4081,N,06831.6244,W,1,09,1.04,24.7,M,-25.8,M,,*6D
$GPGSA,A,3,24,32,04,28,11,01,17,03,06,,,,1.34,1.04,0.85*07
,-25.8,M,,*6D
$GPRMC,002120.000,A,4826.4081,N,06831.6244,W,0.17,240.05,220515,,,A*74
D
$GPVTG,240.05,T,,M,0.17,N,0.31,K,A*3A
6244,W,0.17,240.05,220515,,,A*74
D
$GPGSV,3,1,11,17,76,319,29,28,52,169,29,03,45,093,26,06,37,232,15*7D
4
D
$GPGGA,002124.000,4826.4081,N,06831.6246,W,1,09,1.04,24.7,M,-25.8,M,,*6B

$GPGSA,A,3,24,32,04,28,11,01,17,03,06,,,,1.34,1.04,0.85*07

$GPRMC,002124.000,A,4826.4081,N,06831.6246,W,0.10,283.01,220515,,,A*7E

$GPVTG,283.01,T,,M,0.10,N,0.19,K,A*3C

$GPGSV,3,2,11,01,31,057,24,51,23,227,,32,22,047,28,24,17,308,16*79
$GPGSV,3,3,11,11,15,071,25,04,05,057,18,14,01,008,*4A
17,308,16*79
$GPRMC,002111.000,A,4826.4079,N,06831.6237,W,0.23,278.73,220515,,,A*78
$GPVTG,278.73,T,,M,0.23,N,0.42,K,A*33
6237,W,0.23,278.73,220515,,,A*78
$GPGGA,002114.000,4826.4080,N,06831.6240,W,1,09,1.04,24.7,M,-25.8,M,,*6F
$GPGSA,A,3,24,32,04,28,11,01,17,03,06,,,,1.34,1.04,0.85*07
,-25.8,M,,*6F
$GPRMC,002114.000,A,4826.4080,N,06831.6240,W,0.15,295.56,220515,,,A*7A
F
$GPVTG,295.56,T,,M,0.15,N,0.27,K,A*31
6240,W,0.15,295.56,220515,,,A*7A
F
$GPVTG,56.66,T,,M,0.31,N,0.58,K,A*01

6240,W,0.15,295.56,220515,,,A*7A
F
$GPGGA,002118.000,4826.4081,N,06831.6243,W,1,09,1.04,24.7,M,-25.8,M,,*61
$GPGSA,A,3,24,32,04,28,11,01,17,03,06,,,,1.34,1.04,0.85*07
,-25.8,M,,*61
$GPRMC,002118.000,A,4826.4081,N,06831.6243,W,0.14,304.68,220515,,,A*71
1
$GPGGA,002121.000,4826.4081,N,06831.6244,W,1,09,1.04,24.7,M,-25.8,M,,*6C
$GPGGA,002125.000,4826.4081,N,06831.6246,W,1,09,1.04,24.7,M,-25.8,M,,*6A

$GPGSA,A,3,24,32,04,28,11,01,17,03,06,,,,1.34,1.04,0.85*07

$GPRMC,002125.000,A,4826.4081,N,06831.6246,W,0.06,305.22,220515,,,A*76

$GPVTG,305.22,T,,M,0.06,N,0.12,K,A*3E

$GPGSA,A,3,24,32,04,28,11,01,17,03,06,,,,1.34,1.04,0.85*07
ˇˇˇ
$GPGSV,3,1,11,17,77,320,29,28,52,169,29,03,45,093,25,06,37,232,12*72
$GPGSV,3,2,11,01,31,057,22,32,22,047,28,24,17,308,14,11,15,071,23*7C
$GPGSV,3,3,11,33,15,119,,04,05,057,18,14,01,007,*4D
,11,15,071,23*7C
$GPRMC,002121.000,A,4826.4081,N,06831.6244,W,0.08,277.77,220515,,,A*7A
$GPVTG,277.77,T,,M,0.08,N,0.15,K,A*33
6244,W,0.08,277.77,220515,,,A*7A
$GPVTG,304.68,T,,M,0.14,N,0.26,K,A*35
6244,W,0.08,277.77,220515,,,A*7A
$GPGGA,002112.000,4826.4080,N,06831.6238,W,1,09,1.04,24.7,M,-25.8,M,,*66
$GPGGA,002113.000,4826.4080,N,06831.6240,W,1,09,1.04,24.7,M,-25.8,M,,*68
$GPGGA,002116.000,4826.4081,N,06831.6242,W,1,09,1.04,24.7,M,-25.8,M,,*6E
$GPGSA,A,3,24,32,04,28,11,01,17,03,06,,,,1.34,1.04,0.85*07
,-25.8,M,,*6E
$GPGSV,3,1,11,17,77,320,29,28,52,169,29,03,45,093,26,06,37,232,15*76
*6E
$GPGSV,3,2,11,01,31,057,24,51,23,227,,32,22,047,28,24,17,308,16*79
6
*6E
$GPGSV,3,3,11,11,15,071,24,04,05,057,18,14,01,007,*44
17,308,16*79
6
*6E
$GPGGA,002126.000,4826.4081,N,06831.6246,W,1,09,1.04,24.7,M,-25.8,M,,*69

$GPGSA,A,3,24,32,04,28,11,01,17,03,06,,,,1.34,1.04,0.85*07

$GPGSV,3,1,11,17,77,320,29,28,52,169,28,03,45,093,22,06,37,232,14*72

$GPGSV,3,2,11,01,31,057,22,32,22,047,26,24,17,308,14,11,15,071,23*72

$GPGSV,3,3,11,48,08,250,,04,05,057,17,14,01,007,*4C

$GPRMC,002126.000,A,4826.4081,N,06831.6246,W,0.07,316.75,220515,,,A*74

$GPVTG,316.75,T,,M,0.07,N,0.13,K,A*3E

$GPRMC,002116.000,A,4826.4081,N,06831.6242,W,0.08,258.79,220515,,,A*7B
$GPVTG,258.79,T,,M,0.08,N,0.15,K,A*30
6242,W,0.08,258.79,220515,,,A*7B
$GPGSA,A,3,24,32,04,28,11,01,17,03,06,,,,1.34,1.04,0.85*07
0515,,,A*7B
$GPRMC,002113.000,A,4826.4080,N,06831.6240,W,0.21,294.51,220515,,,A*7C
$GPVTG,294.51,T,,M,0.21,N,0.39,K,A*3F
6240,W,0.21,294.51,220515,,,A*7C
$GPGGA,002122.000,4826.4081,N,06831.6245,W,1,09,1.04,24.7,M,-25.8,M,,*6E
$GPGSA,A,3,24,32,04,28,11,01,17,03,06,,,,1.34,1.04,0.85*07
,-25.8,M,,*6E
$GPRMC,002122.000,A,4826.4081,N,06831.6245,W,0.13,320.96,220515,,,A*7E
E
$GPVTG,320.96,T,,M,0.13,N,0.24,K,A*37
6245,W,0.13,320.96,220515,,,A*7E
E
$GPGSA,A,3,24,32,04,28,11,01,17,03,06,,,,1.34,1.04,0.85*07
0515,,,A*7E
E
$GPGGA,002119.000,4826.4081,N,06831.6243,W,1,09,1.04,24.7,M,-25.8,M,,*60
$GPGSA,A,3,24,32,04,28,11,01,17,03,06,,,,1.34,1.04,0.85*07
,-25.8,M,,*60
$GPRMC,002119.000,A,4826.4081,N,06831.6243,W,0.17,270.47,220515,,,A*7C
0
$GPVTG,270.47,T,,M,0.17,N,0.31,K,A*3F
6243,W,0.17,270.47,220515,,,A*7C
0
$GPGGA,002127.000,4826.4081,N,06831.6247,W,1,09,1.04,24.7,M,-25.8,M,,*69

$GPGSA,A,3,24,32,04,28,11,01,17,03,06,,,,1.34,1.04,0.85*07

$GPRMC,002127.000,A,4826.4081,N,06831.6247,W,0.02,91.56,220515,,,A*4C

$GPVTG,91.56,T,,M,0.02,N,0.03,K,A*07

$GPVTG,61.38,T,,M,0.33,N,0.62,K,A*05
ˇˇˇˇˇˇˇˇˇˇˇˇˇˇˇˇˇˇˇˇˇˇˇˇˇ
$GPRMC,002046.000,A,4826.4075,N,06831.6237,W,0.31,56.66,220515,,,A*4E
$GPGGA,002115.000,4826.4080,N,06831.6241,W,1,09,1.04,24.7,M,-25.8,M,,*6F
$GPGSA,A,3,24,32,04,28,11,01,17,03,06,,,,1.34,1.04,0.85*07
,-25.8,M,,*6F
$GPRMC,002115.000,A,4826.4080,N,06831.6241,W,0.20,300.46,220515,,,A*70
F
$GPGGA,002117.000,4826.4081,N,06831.6242,W,1,09,1.04,24.7,M,-25.8,M,,*6F
$GPGSA,A,3,24,32,04,28,11,01,17,03,06,,,,1.34,1.04,0.85*07
,-25.8,M,,*6F
$GPGGA,002123.000,4826.4081,N,06831.6245,W,1,09,1.04,24.7,M,-25.8,M,,*6F
$GPGSA,A,3,24,32,04,28,11,01,17,03,06,,,,1.34,1.04,0.85*07
,-25.8,M,,*6F
$GPRMC,002123.000,A,4826.4081,N,06831.6245,W,0.16,287.46,220515,,,A*7B
F
$GPVTG,287.46,T,,M,0.16,N,0.29,K,A*3E
6245,W,0.16,287.46,220515,,,A*7B
F
$GPRMC,002117.000,A,4826.4081,N,06831.6242,W,0.11,260.70,220515,,,A*70
F
$GPVTG,260.70,T,,M,0.11,N,0.21,K,A*3D
6242,W,0.11,260.70,220515,,,A*70
F
$GPGGA,002128.000,4826.4082,N,06831.6246,W,1,09,1.04,24.7,M,-25.8,M,,*64

$GPGSA,A,3,24,32,04,28,11,01,17,03,06,,,,1.34,1.04,0.85*07

$GPRMC,002128.000,A,4826.4082,N,06831.6246,W,0.01,227.94,220515,,,A*73

$GPVTG,227.94,T,,M,0.01,N,0.02,K,A*34

$GPVTG,300.46,T,,M,0.20,N,0.37,K,A*3A
ˇˇˇˇˇˇˇˇˇˇˇˇˇˇˇˇˇˇˇˇˇˇˇˇ
$GPGGA,002111.000,4826.4079,N,06831.6237,W,1,09,1.04,24.7,M,-25.8,M,,*6C
$GPGSA,A,3,24,32,04,28,11,01,17,03,06,,,,1.34,1.04,0.85*07
,-25.8,M,,*6C
$GPGGA,002120.000,4826.4081,N,06831.6244,W,1,09,1.04,24.7,M,-25.8,M,,*6D
$GPGSA,A,3,24,32,04,28,11,01,17,03,06,,,,1.34,1.04,0.85*07
,-25.8,M,,*6D
$GPRMC,002120.000,A,4826.4081,N,06831.6244,W,0.17,240.05,220515,,,A*74
D
$GPVTG,240.05,T,,M,0.17,N,0.31,K,A*3A
6244,W,0.17,240.05,220515,,,A*74
D
$GPGSV,3,1,11,17,76,319,29,28,52,169,29,03,45,093,26,06,37,232,15*7D
ù“$¢AËIËπÙA$GPGGA,002124.000,4826.4081,N,06831.6246,W,1,09,1.04,24.7,M,-25.8,M,,*6B
$¢AËIËπÙA$GPGSA,A,3,24,32,04,28,11,01,17,03,06,,,,1.34,1.04,0.85*07
,-25.8,M,,*6B
$¢AËIËπÙA$GPRMC,002124.000,A,4826.4081,N,06831.6246,W,0.10,283.01,220515,,,A*7E
B
$¢AËIËπÙA$GPVTG,283.01,T,,M,0.10,N,0.19,K,A*3C
6246,W,0.10,283.01,220515,,,A*7E
B
$¢AËIËπÙA$GPGSV,3,2,11,01,31,057,24,51,23,227,,32,22,047,28,24,17,308,16*79
*7E
B
$¢AËIËπÙA$GPGGA,002129.000,4826.4082,N,06831.6247,W,1,08,1.19,24.7,M,-25.8,M,,*69

$GPGSA,A,3,24,32,04,28,11,01,17,03,,,,,1.47,1.19,0.87*0B

$GPRMC,002129.000,A,4826.4082,N,06831.6247,W,0.25,341.74,220515,,,A*7A

$GPVTG,341.74,T,,M,0.25,N,0.46,K,A*3D

$GPGSV,3,3,11,11,15,071,25,04,05,057,18,14,01,008,*4A
ˇˇˇˇˇˇˇˇ
$GPRMC,002111.000,A,4826.4079,N,06831.6237,W,0.23,278.73,220515,,,A*78
$GPVTG,278.73,T,,M,0.23,N,0.42,K,A*33
6237,W,0.23,278.73,220515,,,A*78
$GPGGA,002114.000,4826.4080,N,06831.6240,W,1,09,1.04,24.7,M,-25.8,M,,*6F
$GPGSA,A,3,24,32,04,28,11,01,17,03,06,,,,1.34,1.04,0.85*07
,-25.8,M,,*6F
$GPRMC,002114.000,A,4826.4080,N,06831.6240,W,0.15,295.56,220515,,,A*7A
F
$GPVTG,295.56,T,,M,0.15,N,0.27,K,A*31
6240,W,0.15,295.56,220515,,,A*7A
F
$GPVTG,56.66,T,,M,0.31,N,0.58,K,A*01

6240,W,0.15,295.56,220515,,,A*7A
F
$GPGGA,002118.000,4826.4081,N,06831.6243,W,1,09,1.04,24.7,M,-25.8,M,,*61
$GPGSA,A,3,24,32,04,28,11,01,17,03,06,,,,1.34,1.04,0.85*07
,-25.8,M,,*61
$GPRMC,002118.000,A,4826.4081,N,06831.6243,W,0.14,304.68,220515,,,A*71
1
$GPGGA,002121.000,4826.4081,N,06831.6244,W,1,09,1.04,24.7,M,-25.8,M,,*6C
$GPGGA,002125.000,4826.4081,N,06831.6246,W,1,09,1.04,24.7,M,-25.8,M,,*6A
$GPGGA,002130.000,4826.4082,N,06831.6247,W,1,08,1.19,24.7,M,-25.8,M,,*61

$GPGSA,A,3,24,32,04,28,11,01,17,03,,,,,1.47,1.19,0.87*0B

$GPRMC,002130.000,A,4826.4082,N,06831.6247,W,0.32,356.29,220515,,,A*7A

$GPVTG,356.29,T,,M,0.32,N,0.59,K,A*3B

$GPGSA,A,3,24,32,04,28,11,01,17,03,06,,,,1.34,1.04,0.85*07
ˇˇˇ
$GPRMC,002125.000,A,4826.4081,N,06831.6246,W,0.06,305.22,220515,,,A*76
$GPVTG,305.22,T,,M,0.06,N,0.12,K,A*3E
6246,W,0.06,305.22,220515,,,A*76
$GPGSA,A,3,24,32,04,28,11,01,17,03,06,,,,1.34,1.04,0.85*07
0515,,,A*76
$GPGSV,3,1,11,17,77,320,29,28,52,169,29,03,45,093,25,06,37,232,12*72
6
$GPGSV,3,2,11,01,31,057,22,32,22,047,28,24,17,308,14,11,15,071,23*7C
6
$GPGSV,3,3,11,33,15,119,,04,05,057,18,14,01,007,*4D
,11,15,071,23*7C
6
$GPRMC,002121.000,A,4826.4081,N,06831.6244,W,0.08,277.77,220515,,,A*7A
$GPVTG,277.77,T,,M,0.08,N,0.15,K,A*33
6244,W,0.08,277.77,220515,,,A*7A
$GPVTG,304.68,T,,M,0.14,N,0.26,K,A*35
6244,W,0.08,277.77,220515,,,A*7A
$GPGGA,002112.000,4826.4080,N,06831.6238,W,1,09,1.04,24.7,M,-25.8,M,,*66
$GPGGA,0014,01,007,*4D
,11,15,071,23*7C
6
$GPRMC,002121.000,A,4826.4081,N,06831.6244,W,0.08,277.77,220515,,,A*7A
$GPVTG,277.77,T,,M,0.08,N,0.15,K,A*33
6244,W,0.08,277.77,220515,,,A*7A
$GPVTG,304.68,T,,M,0.14,N,0.26,K,A*35
6244,W,0.08,277.77,220515,,,A*7A
$GPGGA,002112.000,4826.4080,N,06831.6238,W,1,09,1.04,24.7,M,-25.8,M,,*66
$GPRMC,002121.000,A,4826.4081,N,06831.6244,W,0.08,277.77,220515,,,A*7A
6
$GPVTG,277.77,T,,M,0.08,N,0.15,K,A*33
6244,W,0.08,277.77,220515,,,A*7A
6
$GPVTG,304.68,T,,M,0.14,N,0.26,K,A*35
6244,W,0.08,277.77,220515,,,A*7A
6
$GPGGA,002138.000,4826.4088,N,06831.6249,W,1,08,1.19,24.7,M,-25.8,M,,*6D

$GPGSA,A,3,24,32,04,28,11,01,17,03,,,,,1.47,1.19,0.87*0B

$GPRMC,002138.000,A,4826.4088,N,06831.6249,W,0.23,319.20,220515,,,A*74

$GPVTG,319.20,T,,M,0.23,N,0.42,K,A*33

$GPGGA,002112.000,4826.4080,N,06831.6238,W,1,09,1.04,24.7,M,-25.8,M,,*66
$GPRMC,002121.000,A,4826.4081,N,06831.6244,W,0.08,277.77,220515,,,A*7A
6
$GPVTG,277.77,T,,M,0.08,N,0.15,K,A*33
6244,W,0.08,277.77,220515,,,A*7A
6
$GPVTG,304.68,T,,M,0.14,N,0.26,K,A*35
6244,W,0.08,277.77,220515,,,A*7A
6
$GPGGA,002138.000,4826.4088,N,06831.6249,W,1,08,1.19,24.7,M,-25.8,M,,*6D
$GPGSA,A,3,24,32,04,28,11,01,17,03,,,,,1.47,1.19,0.87*0B
,M,-25.8,M,,*6D
$GPRMC,002138.000,A,4826.4088,N,06831.6249,W,0.23,319.20,220515,,,A*74
D
$GPVTG,319.20,T,,M,0.23,N,0.42,K,A*33
6249,W,0.23,319.20,220515,,,A*74
D
$GPGGA,002112.000,4826.4080,N,06831.6238,W,1,09,1.04,24.7,M,-25.8,M,,*66
$GPRMC,002121.000,A,4826.4081,N,06831.6244,W,0.08,277.77,220515,,,A*7A
6
$GPVTG,277.77,T,,M,0.08,N,0.15,K,A*33
6244,W,0.08,277.77,220515,,,A*7A
6
$GPVTG,304.68,T,,M,0.14,N,0.26,K,A*35
6244,W,0.08,277.77,220515,,,A*7A
6
$GPGGA,002139.000,4826.4088,N,06831.6249,W,1,07,1.21,24.7,M,-25.8,M,,*68

$GPGSA,A,3,24,32,28,11,01,17,03,,,,,,1.50,1.21,0.89*0C

$GPRMC,002139.000,A,4826.4088,N,06831.6249,W,0.22,311.92,220515,,,A*75

$GPVTG,311.92,T,,M,0.22,N,0.41,K,A*30

$GPGGA,002138.000,4826.4088,N,06831.6249,W,1,08,1.19,24.7,M,-25.8,M,,*6D
$GPGSA,A,3,24,32,04,28,11,01,17,03,,,,,1.47,1.19,0.87*0B
,M,-25.8,M,,*6D
$GPRMC,002138.000,A,4826.4088,N,06831.6249,W,0.23,319.20,220515,,,A*74
D
$GPVTG,319.20,T,,M,0.23,N,0.42,K,A*33
6249,W,0.23,319.20,220515,,,A*74
D
$GPGGA,002112.000,4826.4080,N,06831.6238,W,1,09,1.04,24.7,M,-25.8,M,,*66
$GPRMC,002121.000,A,4826.4081,N,06831.6244,W,0.08,277.77,220515,,,A*7A
6
$GPVTG,277.77,T,,M,0.08,N,0.15,K,A*33
6244,W,0.08,277.77,220515,,,A*7A
6
$GPVTG,304.68,T,,M,0.14,N,0.26,K,A*35
6244,W,0.08,277.77,220515,,,A*7A
6
$GPGGA,002139.000,4826.4088,N,06831.6249,W,1,07,1.21,24.7,M,-25.8,M,,*68
$GPGSA,A,3,24,32,28,11,01,17,03,,,,,,1.50,1.21,0.89*0C
.7,M,-25.8,M,,*68
$GPRMC,002139.000,A,4826.4088,N,06831.6249,W,0.22,311.92,220515,,,A*75
8
$GPVTG,311.92,T,,M,0.22,N,0.41,K,A*30
6249,W,0.22,311.92,220515,,,A*75
8
$GPGGA,002138.000,4826.4088,N,06831.6249,W,1,08,1.19,24.7,M,-25.8,M,,*6D
$GPGSA,A,3,24,32,04,28,11,01,17,03,,,,,1.47,1.19,0.87*0B
,M,-25.8,M,,*6D
$GPGGA,002140.000